{"type":"FeatureCollection","features":[{"type":"Feature","id":1,"geometry":{"type":"Point","coordinates":[-119.81972690002603,47.252765479982344]},"properties":{"OID":1,"Name":"Microsoft","SqFt":470000,"City":"Quincy","State":"WA","lat":47.252765480000001,"long":-119.81972690000001,"DDLat":47.252765480000001,"DDLon":-119.81972690000001}},{"type":"Feature","id":2,"geometry":{"type":"Point","coordinates":[-75.679170000381021,45.381709999985858]},"properties":{"OID":2,"Name":"Sabey Data Centers","SqFt":560000,"City":"Tukwila","State":"WA","lat":45.381709999999998,"long":-75.679169999999999,"DDLat":45.381709999999998,"DDLon":-75.679169999999999}},{"type":"Feature","id":3,"geometry":{"type":"Point","coordinates":[-120.88503460000668,44.295013380174034]},"properties":{"OID":3,"Name":"Facebook","SqFt":340000,"City":"Prineville","State":"OR","lat":44.29501338,"long":-120.8850346,"DDLat":44.29501338,"DDLon":-120.8850346}},{"type":"Feature","id":4,"geometry":{"type":"Point","coordinates":[-121.42684499969675,37.735076000079211]},"properties":{"OID":4,"Name":"Digital Realty Trust","SqFt":527680,"City":"San Fransisco","State":"CA","lat":37.735075999999999,"long":-121.426845,"DDLat":37.735075999999999,"DDLon":-121.426845}},{"type":"Feature","id":5,"geometry":{"type":"Point","coordinates":[-113.65005999977551,37.129529999931535]},"properties":{"OID":5,"Name":"Server Farm Realty","SqFt":468000,"City":"Santa Clara","State":"CA","lat":37.129530000000003,"long":-113.65006,"DDLat":37.129530000000003,"DDLon":-113.65006}},{"type":"Feature","id":6,"geometry":{"type":"Point","coordinates":[-115.1405799996211,36.169090000129373]},"properties":{"OID":6,"Name":"Switch","SqFt":525000,"City":"Las Vegas","State":"NV","lat":36.169089999999997,"long":-115.14058,"DDLat":36.169089999999997,"DDLon":-115.14058}},{"type":"Feature","id":7,"geometry":{"type":"Point","coordinates":[-75.679170000381021,45.381709999985858]},"properties":{"OID":7,"Name":"IO Data Center","SqFt":538000,"City":"Phoenix","State":"AZ","lat":45.381709999999998,"long":-75.679169999999999,"DDLat":45.381709999999998,"DDLon":-75.679169999999999}},{"type":"Feature","id":8,"geometry":{"type":"Point","coordinates":[-111.88680900032107,33.274823000097442]},"properties":{"OID":8,"Name":"Digital Realty Trust","SqFt":519479,"City":"Chandler","State":"AZ","lat":33.274822999999998,"long":-111.886809,"DDLat":33.274822999999998,"DDLon":-111.886809}},{"type":"Feature","id":9,"geometry":{"type":"Point","coordinates":[-118.26366999960705,33.805779999644187]},"properties":{"OID":9,"Name":"Digital Realty Trust","SqFt":489722,"City":"Los Angeles","State":"CA","lat":33.805779999999999,"long":-118.26367,"DDLat":33.805779999999999,"DDLon":-118.26367}},{"type":"Feature","id":10,"geometry":{"type":"Point","coordinates":[-118.24334000003667,34.052240000039255]},"properties":{"OID":10,"Name":"CoreSite","SqFt":665000,"City":"Los Angeles","State":"CA","lat":34.052239999999998,"long":-118.24334,"DDLat":34.052239999999998,"DDLon":-118.24334}},{"type":"Feature","id":11,"geometry":{"type":"Point","coordinates":[-96.889790000294553,32.975540000286223]},"properties":{"OID":11,"Name":"Cyrustone","SqFt":670000,"City":"Carrollton","State":"TX","lat":32.975540000000002,"long":-96.889790000000005,"DDLat":32.975540000000002,"DDLon":-96.889790000000005}},{"type":"Feature","id":12,"geometry":{"type":"Point","coordinates":[-96.999470890074008,32.999604630326239]},"properties":{"OID":12,"Name":"Digital Realty Trust","SqFt":829372,"City":"Lewisville","State":"TX","lat":32.99960463,"long":-96.999470889999998,"DDLat":32.99960463,"DDLon":-96.999470889999998}},{"type":"Feature","id":13,"geometry":{"type":"Point","coordinates":[-96.81952299993138,32.800965999888042]},"properties":{"OID":13,"Name":"Infomart","SqFt":1600000,"City":"Dallas","State":"TX","lat":32.800966000000003,"long":-96.819523000000004,"DDLat":32.800966000000003,"DDLon":-96.819523000000004}},{"type":"Feature","id":14,"geometry":{"type":"Point","coordinates":[-96.703060000436736,32.973170000144172]},"properties":{"OID":14,"Name":"Digital Realty Trust","SqFt":477107,"City":"Dallas","State":"TX","lat":32.973170000000003,"long":-96.703059999999994,"DDLat":32.973170000000003,"DDLon":-96.703059999999994}},{"type":"Feature","id":15,"geometry":{"type":"Point","coordinates":[-87.638029999769742,39.194680000197707]},"properties":{"OID":15,"Name":"Hopone Internet Corp","SqFt":1150000,"City":"New York","State":"NY","lat":39.194679999999998,"long":-87.638030000000001,"DDLat":39.194679999999998,"DDLon":-87.638030000000001}},{"type":"Feature","id":16,"geometry":{"type":"Point","coordinates":[-87.629799000027717,41.87811299992466]},"properties":{"OID":16,"Name":"Digital Realty Trust","SqFt":1133739,"City":"Chicago","State":"IL","lat":41.878112999999999,"long":-87.629799000000006,"DDLat":41.878112999999999,"DDLon":-87.629799000000006}},{"type":"Feature","id":17,"geometry":{"type":"Point","coordinates":[-77.023758420013309,38.895708780269885]},"properties":{"OID":17,"Name":"DuPont Fabros","SqFt":485000,"City":"Chicago","State":"IL","lat":38.89570878,"long":-77.023758419999993,"DDLat":38.89570878,"DDLon":-77.023758419999993}},{"type":"Feature","id":18,"geometry":{"type":"Point","coordinates":[-67.734430000245837,45.823250000227489]},"properties":{"OID":18,"Name":"Microsoft","SqFt":700000,"City":"Northlake","State":"IL","lat":45.823250000000002,"long":-67.734430000000003,"DDLat":45.823250000000002,"DDLon":-67.734430000000003}},{"type":"Feature","id":19,"geometry":{"type":"Point","coordinates":[-74.007449999922258,40.707180000100941]},"properties":{"OID":19,"Name":"Apple","SqFt":500000,"City":"Maiden","State":"NC","lat":40.707180000000001,"long":-74.007450000000006,"DDLat":40.707180000000001,"DDLon":-74.007450000000006}},{"type":"Feature","id":20,"geometry":{"type":"Point","coordinates":[-84.469890000324909,33.896800000002408]},"properties":{"OID":20,"Name":"QTS Realty Trust","SqFt":970000,"City":"Atlanta","State":"GA","lat":33.896799999999999,"long":-84.469890000000007,"DDLat":33.896799999999999,"DDLon":-84.469890000000007}},{"type":"Feature","id":21,"geometry":{"type":"Point","coordinates":[-75.539120000251643,42.816980000014773]},"properties":{"OID":21,"Name":"Sabey Data Centers","SqFt":1500000,"City":"New York","State":"NY","lat":42.816980000000001,"long":-75.539119999999997,"DDLat":42.816980000000001,"DDLon":-75.539119999999997}},{"type":"Feature","id":22,"geometry":{"type":"Point","coordinates":[-74.007229999814228,40.71304999977275]},"properties":{"OID":22,"Name":"Google","SqFt":2900000,"City":"New York","State":"NY","lat":40.713050000000003,"long":-74.007230000000007,"DDLat":40.713050000000003,"DDLon":-74.007230000000007}},{"type":"Feature","id":23,"geometry":{"type":"Point","coordinates":[-84.685839999994272,44.362689999808573]},"properties":{"OID":23,"Name":"Markley Group","SqFt":800000,"City":"Boston","State":"MA","lat":44.362690000000001,"long":-84.685839999999999,"DDLat":44.362690000000001,"DDLon":-84.685839999999999}},{"type":"Feature","id":24,"geometry":{"type":"Point","coordinates":[-74.49265359019293,40.327196849841272]},"properties":{"OID":24,"Name":"Lam Cloud","SqFt":500000,"City":"Cranbury","State":"NJ","lat":40.32719685,"long":-74.492653590000003,"DDLat":40.32719685,"DDLon":-74.492653590000003}},{"type":"Feature","id":25,"geometry":{"type":"Point","coordinates":[-77.502049999687131,39.047070000211981]},"properties":{"OID":25,"Name":"Equinox","SqFt":500000,"City":"Ashburn","State":"VA","lat":39.047069999999998,"long":-77.502049999999997,"DDLat":39.047069999999998,"DDLon":-77.502049999999997}},{"type":"Feature","id":26,"geometry":{"type":"Point","coordinates":[-77.487766759720174,39.047819719834642]},"properties":{"OID":26,"Name":"DuPont Fabros","SqFt":800000,"City":"Ashburn","State":"VA","lat":39.04781972,"long":-77.48776676,"DDLat":39.04781972,"DDLon":-77.48776676}},{"type":"Feature","id":27,"geometry":{"type":"Point","coordinates":[-84.333203999593408,33.874708999745735]},"properties":{"OID":27,"Name":"Cousins Properties","SqFt":995000,"City":"Atlanta","State":"GA","lat":33.874709000000003,"long":-84.333203999999995,"DDLat":33.874709000000003,"DDLon":-84.333203999999995}},{"type":"Feature","id":28,"geometry":{"type":"Point","coordinates":[-80.194699999826298,25.775080000208387]},"properties":{"OID":28,"Name":"Verizon","SqFt":703999,"City":"Miami","State":"FL","lat":25.775079999999999,"long":-80.194699999999997,"DDLat":25.775079999999999,"DDLon":-80.194699999999997}},{"type":"Feature","id":29,"geometry":{"type":"Point","coordinates":[-77.244187150194705,37.488127360265125]},"properties":{"OID":29,"Name":"QTS Realty Trust","SqFt":1500000,"City":"Sandston","State":"VA","lat":37.48812736,"long":-77.244187150000002,"DDLat":37.48812736,"DDLon":-77.244187150000002}},{"type":"Feature","id":30,"geometry":{"type":"Point","coordinates":[-81.486420000298025,40.477900000089292]},"properties":{"OID":30,"Name":"Digital Realty Trust","SqFt":654758,"City":"Philadelphia","State":"PA","lat":40.477899999999998,"long":-81.486419999999995,"DDLat":40.477899999999998,"DDLon":-81.486419999999995}},{"type":"Feature","id":31,"geometry":{"type":"Point","coordinates":[-75.193939999640989,39.947819999739771]},"properties":{"OID":31,"Name":"Sunguard Availability Services","SqFt":578000,"City":"Philadelphia","State":"PA","lat":39.94782,"long":-75.193939999999998,"DDLat":39.94782,"DDLon":-75.193939999999998}}]}